City_ID,City,Country,Date,Lat,Lng,Max Temp,Humidity,Cloudiness,Wind Speed
0,Carutapera,BR,2022-05-02 08:56:11,-1.195,-46.02,75.27,93,99,4.09
1,Novaya Zaimka,RU,2022-05-02 08:56:12,56.4857,66.9241,46.36,31,100,17.83
2,Hermanus,ZA,2022-05-02 08:56:12,-34.4187,19.2345,71.8,51,41,4.05
3,East London,ZA,2022-05-02 08:56:13,-33.0153,27.9116,70.74,64,0,4.61
4,Jamestown,US,2022-05-02 08:55:13,42.097,-79.2353,53.24,95,100,9.22
5,Carnarvon,AU,2022-05-02 08:56:14,-24.8667,113.6333,84.27,32,0,19.57
6,Hobart,AU,2022-05-02 08:56:15,-42.8794,147.3294,64.26,68,75,13.8
7,Nikolskoye,RU,2022-05-02 08:56:16,59.7035,30.7861,51.69,41,56,8.93
8,Anadyr,RU,2022-05-02 08:56:16,64.75,177.4833,21.7,79,0,8.95
9,Lagoa,PT,2022-05-02 08:56:17,39.05,-27.9833,60.08,84,11,4.68
10,Albany,US,2022-05-02 08:56:18,42.6001,-73.9662,54.63,75,100,4.56
11,Pevek,RU,2022-05-02 08:56:18,69.7008,170.3133,10.24,92,95,3.67
12,Rikitea,PF,2022-05-02 08:56:19,-23.1203,-134.9692,76.69,74,96,8.9
13,Villeneuve-Sur-Lot,FR,2022-05-02 08:56:20,44.5,0.6667,59.05,84,99,4.65
14,Mataura,NZ,2022-05-02 08:56:21,-46.1927,168.8643,52.48,80,28,2.24
15,Butaritari,KI,2022-05-02 08:56:22,3.0707,172.7902,81.54,80,19,14.03
16,Bredasdorp,ZA,2022-05-02 08:56:22,-34.5322,20.0403,69.26,52,44,6.78
17,Sarandi,BR,2022-05-02 08:56:23,-23.4436,-51.8739,64.33,87,39,3.18
18,Cherskiy,RU,2022-05-02 08:56:23,68.75,161.3,28.11,92,62,2.71
19,Vera Cruz,BR,2022-05-02 08:56:24,-12.6333,-41.0333,63.97,98,6,0.85
20,Punta Arenas,CL,2022-05-02 08:56:25,-53.15,-70.9167,37.51,87,75,10.36
21,Geraldton,AU,2022-05-02 08:56:26,-28.7667,114.6,73.81,60,0,19.57
22,Raton,US,2022-05-02 08:56:26,36.9034,-104.4391,47.05,64,0,6.89
23,Barrow,US,2022-05-02 08:56:27,71.2906,-156.7887,17.62,86,100,13.8
24,Bandarbeyla,SO,2022-05-02 08:56:28,9.4942,50.8122,91.96,56,4,16.2
25,Aykhal,RU,2022-05-02 08:56:28,66.0,111.5,31.17,83,100,19.75
26,Kidal,ML,2022-05-02 08:56:29,18.4411,1.4078,87.49,11,0,13.6
27,Grindavik,IS,2022-05-02 08:56:30,63.8424,-22.4338,41.47,70,0,5.75
28,Busselton,AU,2022-05-02 08:56:31,-33.65,115.3333,65.73,58,22,13.02
29,Evensk,RU,2022-05-02 08:56:32,61.95,159.2333,29.59,88,29,10.8
30,Los Llanos De Aridane,ES,2022-05-02 08:56:33,28.6585,-17.9182,68.13,50,0,17.27
31,Telsiai,LT,2022-05-02 08:56:33,55.9814,22.2472,50.41,53,20,6.26
32,Cabo San Lucas,MX,2022-05-02 08:55:26,22.8909,-109.9124,67.6,48,4,3.0
33,Chuy,UY,2022-05-02 08:56:35,-33.6971,-53.4616,52.59,75,100,6.85
34,Yellowknife,CA,2022-05-02 08:56:35,62.456,-114.3525,32.56,74,0,9.22
35,Portland,US,2022-05-02 08:53:31,45.5234,-122.6762,55.78,75,100,10.0
36,Rassvet,RU,2022-05-02 08:56:36,46.8333,40.75,54.16,69,100,1.12
37,Hilo,US,2022-05-02 08:56:37,19.7297,-155.09,73.27,96,75,6.91
38,Yambio,SS,2022-05-02 08:54:22,4.5721,28.3955,85.86,48,97,6.26
39,Kawalu,ID,2022-05-02 08:56:38,-7.3817,108.2082,81.25,84,99,4.05
40,Ushuaia,AR,2022-05-02 08:56:39,-54.8,-68.3,42.46,61,0,24.16
41,Cape Town,ZA,2022-05-02 08:56:40,-33.9258,18.4232,74.88,55,0,2.3
42,Codrington,AU,2022-05-02 08:57:41,-38.2667,141.9667,62.08,70,100,8.57
43,Longyearbyen,SJ,2022-05-02 08:57:42,78.2186,15.6401,12.04,67,40,8.05
44,Capao Da Canoa,BR,2022-05-02 08:57:42,-29.7456,-50.0097,64.08,74,100,6.91
45,Touros,BR,2022-05-02 08:57:43,-5.1989,-35.4608,77.45,87,52,10.8
46,Iqaluit,CA,2022-05-02 08:57:44,63.7506,-68.5145,20.93,93,100,3.44
47,Dikson,RU,2022-05-02 08:57:44,73.5069,80.5464,19.26,75,100,16.75
48,Leningradskiy,RU,2022-05-02 08:57:45,69.3833,178.4167,10.63,93,99,5.68
49,Lower Hutt,NZ,2022-05-02 08:57:46,-41.2167,174.9167,64.31,89,75,17.27
50,Kodiak,US,2022-05-02 08:57:47,57.79,-152.4072,37.72,86,100,11.65
51,New Norfolk,AU,2022-05-02 08:57:47,-42.7826,147.0587,63.9,69,100,5.99
52,Ribeira Grande,PT,2022-05-02 08:57:48,38.5167,-28.7,63.0,77,75,6.91
53,Victoria,HK,2022-05-02 08:55:05,22.2855,114.1577,70.18,77,100,10.0
54,Gigmoto,PH,2022-05-02 08:57:49,13.7796,124.39,82.74,73,94,7.29
55,Dakoro,NE,2022-05-02 08:57:50,14.5106,6.765,98.55,8,50,9.26
56,San Jeronimo,PE,2022-05-02 08:57:51,-11.9472,-75.2829,43.38,89,49,0.43
57,Tautira,PF,2022-05-02 08:57:51,-17.7333,-149.15,79.66,76,39,7.56
58,Talnakh,RU,2022-05-02 08:57:52,69.4865,88.3972,27.21,86,100,9.82
59,Karaj,IR,2022-05-02 08:57:42,35.8355,51.0103,71.76,45,75,9.22
60,Hamilton,US,2022-05-02 08:56:56,39.1834,-84.5333,51.44,89,13,4.47
61,Port Lincoln,AU,2022-05-02 08:57:54,-34.7333,135.8667,61.56,74,0,9.08
62,Urengoy,RU,2022-05-02 08:57:00,65.9667,78.3667,30.61,97,93,5.12
63,Vestmannaeyjar,IS,2022-05-02 08:57:55,63.4427,-20.2734,45.59,81,75,23.02
64,Phayuha Khiri,TH,2022-05-02 08:57:56,15.4553,100.1353,86.97,39,84,15.21
65,Nanortalik,GL,2022-05-02 08:57:57,60.1432,-45.2371,35.01,93,100,1.07
66,Sao Filipe,CV,2022-05-02 08:57:58,14.8961,-24.4956,73.69,71,18,7.76
67,Kavaratti,IN,2022-05-02 08:57:59,10.5669,72.642,85.1,70,71,13.76
68,Port Blair,IN,2022-05-02 08:57:59,11.6667,92.75,89.64,62,40,4.61
69,Ponta Do Sol,PT,2022-05-02 08:58:00,32.6667,-17.1,69.71,74,1,3.29
70,Mudgal,IN,2022-05-02 08:58:01,16.0167,76.4333,99.59,17,86,8.97
71,Souillac,MU,2022-05-02 08:58:01,-20.5167,57.5167,82.78,74,40,6.91
72,Ancud,CL,2022-05-02 08:58:02,-41.8697,-73.8203,46.53,91,1,3.33
73,Port Hedland,AU,2022-05-02 08:58:03,-20.3167,118.5667,89.65,40,100,9.22
74,Morondava,MG,2022-05-02 08:58:04,-20.2833,44.2833,83.73,44,0,5.5
75,Lasa,IT,2022-05-02 08:58:05,46.6166,10.7002,51.69,66,85,1.54
76,Spydeberg,NO,2022-05-02 08:58:06,59.6171,11.0856,56.53,45,43,8.01
77,Saldanha,ZA,2022-05-02 08:58:07,-33.0117,17.9442,69.85,43,98,2.84
78,Dubuque,US,2022-05-02 08:56:43,42.4833,-90.8668,45.5,64,100,11.43
79,Rocha,UY,2022-05-02 08:58:08,-34.4833,-54.3333,53.92,63,100,5.79
80,Broken Hill,AU,2022-05-02 08:58:09,-31.95,141.4333,58.71,63,0,8.05
81,Khani,GE,2022-05-02 08:58:10,41.9563,42.9566,47.77,99,100,2.48
82,Avera,US,2022-05-02 08:58:11,33.194,-82.5271,65.55,96,100,4.81
83,Sakhon Nakhon,TH,2022-05-02 08:58:12,17.1612,104.1472,66.15,88,75,5.75
84,Necochea,AR,2022-05-02 08:58:13,-38.5473,-58.7368,46.54,66,78,2.89
85,Tsurib,RU,2022-05-02 08:58:14,42.2368,46.8307,48.72,90,100,2.84
86,Cabra,ES,2022-05-02 08:59:15,37.4725,-4.4421,59.63,60,0,10.09
87,Bathsheba,BB,2022-05-02 08:59:15,13.2167,-59.5167,77.61,88,20,16.11
88,Mareeba,AU,2022-05-02 08:59:16,-17.0,145.4333,72.32,97,14,3.24
89,Soligalich,RU,2022-05-02 08:59:17,59.0778,42.2864,47.75,54,99,8.79
90,Rudbar,AF,2022-05-02 08:59:18,30.15,62.6,96.64,13,0,13.02
91,Samarkand,UZ,2022-05-02 08:57:57,39.6542,66.9597,74.62,43,40,4.61
92,Yarmouth,US,2022-05-02 08:59:19,41.7057,-70.2286,49.01,83,44,5.99
93,Severo-Kurilsk,RU,2022-05-02 08:59:19,50.6789,156.125,34.61,92,37,4.36
94,Faanui,PF,2022-05-02 08:59:20,-16.4833,-151.75,81.03,74,95,10.09
95,Priargunsk,RU,2022-05-02 08:59:21,50.3691,119.1012,71.26,23,98,15.23
96,Chauk,MM,2022-05-02 08:59:22,20.8833,94.8167,92.86,39,3,26.11
97,Esperance,AU,2022-05-02 08:59:23,-33.8667,121.9,67.84,75,96,14.09
98,Ambanja,MG,2022-05-02 08:59:24,-13.6833,48.45,85.14,66,9,5.39
99,Nohar,IN,2022-05-02 08:59:24,29.1833,74.7667,112.77,7,0,16.67
100,Okha,RU,2022-05-02 08:59:25,53.5739,142.9478,30.99,92,43,7.96
101,Santa Cruz,BO,2022-05-02 08:59:26,-17.8,-63.1667,71.06,94,40,4.61
102,Avarua,CK,2022-05-02 08:59:27,-21.2078,-159.775,80.65,78,20,5.75
103,Tarnalelesz,HU,2022-05-02 08:59:28,48.05,20.1833,64.74,50,36,2.33
104,Palmer,US,2022-05-02 08:59:29,42.1584,-72.3287,51.24,70,100,2.59
105,Monrovia,LR,2022-05-02 08:59:30,6.3005,-10.7969,82.67,78,99,3.2
106,Port Elizabeth,ZA,2022-05-02 08:59:31,-33.918,25.5701,73.09,63,0,14.0
107,Wilmington,US,2022-05-02 08:59:32,34.2257,-77.9447,69.85,83,20,4.61
108,Tecoanapa,MX,2022-05-02 08:59:33,16.5167,-98.75,77.85,63,85,4.56
109,Shimoda,JP,2022-05-02 08:59:34,34.6667,138.95,66.56,55,65,19.39
110,Chapais,CA,2022-05-02 08:59:35,49.7834,-74.8492,37.18,95,81,7.83
111,Sitka,US,2022-05-02 08:59:37,57.0531,-135.33,44.49,76,100,0.0
112,Bluff,NZ,2022-05-02 08:59:37,-46.6,168.3333,52.81,77,97,7.74
113,Yarada,IN,2022-05-02 08:55:29,17.65,83.2667,95.32,55,20,9.22
114,Luderitz,NA,2022-05-02 08:59:39,-26.6481,15.1594,84.25,23,0,11.23
115,Uige,AO,2022-05-02 08:59:40,-7.6087,15.0613,73.42,83,40,6.91
116,Bengkulu,ID,2022-05-02 08:59:41,-3.8004,102.2655,84.9,69,100,6.91
117,Port Alfred,ZA,2022-05-02 08:59:42,-33.5906,26.891,71.19,74,13,1.99
118,Kavieng,PG,2022-05-02 08:59:42,-2.5744,150.7967,83.52,76,100,8.34
119,Svetlogorsk,BY,2022-05-02 08:59:43,52.6333,29.7333,57.09,67,100,11.23
120,Vaini,TO,2022-05-02 08:59:44,-21.2,-175.2,77.16,94,75,11.5
121,Odweyne,SO,2022-05-02 08:59:45,9.4092,45.064,84.0,44,22,5.5
122,Magadan,RU,2022-05-02 08:59:46,59.5667,150.8,32.18,90,90,4.7
123,Mar Del Plata,AR,2022-05-02 08:55:12,-38.0023,-57.5575,51.87,67,100,5.99
124,Hovd,MN,2022-05-02 08:59:47,48.0056,91.6419,72.7,7,99,5.14
125,Tasiilaq,GL,2022-05-02 08:59:48,65.6145,-37.6368,20.57,72,99,4.14
126,Samarai,PG,2022-05-02 08:59:49,-10.6167,150.6667,81.84,77,36,8.66
127,San Patricio,US,2022-05-02 08:59:50,28.017,-97.5169,78.89,88,95,12.03
128,Veinticinco De Mayo,AR,2022-05-02 08:59:51,-35.4323,-60.1727,39.97,96,16,6.76
129,Mongomo,GQ,2022-05-02 08:59:52,1.6274,11.3135,74.34,92,96,0.4
130,Vanavara,RU,2022-05-02 08:59:52,60.34,102.2797,38.17,55,100,13.04
131,Katsuura,JP,2022-05-02 08:59:53,35.1333,140.3,59.4,68,78,13.65
132,Saskylakh,RU,2022-05-02 08:59:54,71.9167,114.0833,22.6,87,19,7.47
133,Narsaq,GL,2022-05-02 09:01:00,60.9167,-46.05,43.02,75,100,2.46
134,Atuona,PF,2022-05-02 09:01:02,-9.8,-139.0333,78.33,82,100,14.34
135,Qom,IR,2022-05-02 09:01:03,34.6401,50.8764,78.91,20,49,6.67
136,Ilinskiy,RU,2022-05-02 09:01:04,55.619,38.1182,55.78,30,0,4.47
137,Hithadhoo,MV,2022-05-02 09:01:05,-0.6,73.0833,85.5,75,39,19.55
138,Dhampur,IN,2022-05-02 09:01:06,29.3167,78.5167,105.82,16,3,6.26
139,Cap Malheureux,MU,2022-05-02 09:01:07,-19.9842,57.6142,85.46,63,2,8.99
140,Champasak,LA,2022-05-02 09:01:07,14.75,106.0,74.91,91,100,1.32
141,Boddam,GB,2022-05-02 09:01:08,57.4667,-1.7833,50.38,78,73,15.95
142,Tabas,IR,2022-05-02 09:01:09,33.5959,56.9244,84.83,24,16,4.68
143,Vardo,NO,2022-05-02 09:01:09,70.3705,31.1107,30.18,86,75,18.41
144,Gat,IL,2022-05-02 09:00:02,31.61,34.7642,85.78,22,4,3.8
145,Yeppoon,AU,2022-05-02 09:01:10,-23.1333,150.7333,74.98,81,100,16.08
146,Vlagtwedde,NL,2022-05-02 09:01:11,53.0275,7.1083,58.98,60,6,4.16
147,Muscat,OM,2022-05-02 09:00:02,23.6139,58.5922,94.51,34,0,8.43
148,Tomatlan,MX,2022-05-02 09:01:12,19.9333,-105.25,64.78,86,61,2.39
149,Manokwari,ID,2022-05-02 09:01:13,-0.8667,134.0833,81.59,76,72,1.54
150,Englewood,US,2022-05-02 09:01:01,39.6478,-104.9878,45.34,91,100,5.01
151,Fortuna,US,2022-05-02 09:01:14,40.5982,-124.1573,49.12,94,100,0.0
152,Longyan,CN,2022-05-02 09:01:15,25.1072,117.0225,61.72,87,100,3.13
153,Torbay,CA,2022-05-02 09:01:15,47.6666,-52.7314,38.75,96,100,6.91
154,Arraial Do Cabo,BR,2022-05-02 09:01:16,-22.9661,-42.0278,67.86,94,20,3.44
155,Vila,PT,2022-05-02 09:01:17,42.0304,-8.1588,49.08,71,43,5.68
156,Belaya Gora,RU,2022-05-02 09:01:18,68.5333,146.4167,31.82,92,100,3.69
157,Pisco,PE,2022-05-02 09:01:19,-13.7,-76.2167,62.02,88,53,3.74
158,Masuri,KR,2022-05-02 09:01:20,35.8488,128.1492,60.35,38,34,9.6
159,Karlstadt,DE,2022-05-02 09:01:20,49.9603,9.7722,62.42,67,86,7.58
160,Gannan,CN,2022-05-02 09:01:21,47.9147,123.5031,59.2,38,100,10.76
161,Namibe,AO,2022-05-02 09:01:22,-15.1961,12.1522,79.09,61,24,1.83
162,Drawsko Pomorskie,PL,2022-05-02 09:01:23,53.5306,15.8097,57.07,45,23,1.01
163,Merrill,US,2022-05-02 09:01:23,45.1805,-89.6835,41.9,97,100,5.75
164,Santa Maria,BR,2022-05-02 09:01:24,-29.6842,-53.8069,55.65,98,100,7.94
165,Castro,BR,2022-05-02 09:01:25,-24.7911,-50.0119,59.67,89,79,1.81
166,Airai,TL,2022-05-02 09:01:25,-8.9266,125.4092,66.36,74,36,3.47
167,Alindao,CF,2022-05-02 09:01:26,5.0267,21.2088,86.45,54,100,7.36
168,Lompoc,US,2022-05-02 08:57:19,34.6391,-120.4579,52.63,79,100,15.01
169,Saint George,US,2022-05-02 08:56:53,37.1041,-113.5841,58.95,41,0,7.0
170,Mount Isa,AU,2022-05-02 09:01:28,-20.7333,139.5,80.37,47,40,6.91
171,General Cepeda,MX,2022-05-02 09:01:28,25.3833,-101.45,74.07,31,31,5.19
172,Kingisepp,RU,2022-05-02 09:01:29,59.3733,28.6134,50.47,46,61,6.98
173,Vila Velha,BR,2022-05-02 08:57:51,-20.3297,-40.2925,73.35,91,0,3.44
174,Ust-Tsilma,RU,2022-05-02 09:01:30,65.441,52.1498,33.51,67,100,10.63
175,Rize,TR,2022-05-02 09:01:31,40.9044,40.8949,37.38,97,100,3.76
176,Coihaique,CL,2022-05-02 08:59:58,-45.5752,-72.0662,40.95,93,0,5.75
177,Cayenne,GF,2022-05-02 09:01:01,4.9333,-52.3333,81.09,1,100,1.99
178,Keetmanshoop,NA,2022-05-02 09:01:33,-26.5833,18.1333,74.88,15,0,12.97
179,Geilo,NO,2022-05-02 09:01:33,60.5333,8.2076,41.4,68,100,9.13
180,Puerto Ayora,EC,2022-05-02 09:02:34,-0.7393,-90.3518,71.2,93,58,3.06
181,Qaanaaq,GL,2022-05-02 09:02:34,77.484,-69.3632,9.14,65,99,7.45
182,Taksimo,RU,2022-05-02 09:02:35,56.3444,114.8794,38.43,40,43,8.7
183,La Ronge,CA,2022-05-02 09:02:36,55.1001,-105.2842,30.29,94,100,7.9
184,Ozernovskiy,RU,2022-05-02 09:02:36,51.5,156.5167,34.5,94,93,5.59
185,Jumla,NP,2022-05-02 09:02:37,29.2747,82.1838,64.69,56,93,4.43
186,Harper,LR,2022-05-02 09:02:38,4.375,-7.7169,84.27,73,80,4.83
187,Bonavista,CA,2022-05-02 09:02:39,48.6499,-53.1147,36.57,95,100,7.14
188,Mountain Home,US,2022-05-02 08:58:48,43.133,-115.6912,44.31,79,12,3.18
189,Chokurdakh,RU,2022-05-02 09:02:40,70.6333,147.9167,17.91,95,38,5.32
190,Sfantu Gheorghe,RO,2022-05-02 09:02:40,45.8667,25.7833,63.82,48,26,5.12
191,Coquimbo,CL,2022-05-02 09:02:37,-29.9533,-71.3436,57.16,79,95,2.39
192,Wenling,CN,2022-05-02 09:02:41,28.3669,121.36,63.36,71,57,6.87
193,Zalantun,CN,2022-05-02 09:02:42,48.0,122.7167,60.28,51,100,11.34
194,Panzhihua,CN,2022-05-02 09:02:43,26.5851,101.7128,63.66,53,98,2.82
195,Palembang,ID,2022-05-02 08:58:17,-2.9167,104.7458,89.69,62,75,6.91
196,Srednekolymsk,RU,2022-05-02 09:02:44,67.45,153.6833,31.71,91,100,1.83
197,Cabedelo,BR,2022-05-02 09:02:45,-6.9811,-34.8339,78.48,85,83,9.84
198,Khatanga,RU,2022-05-02 09:02:46,71.9667,102.5,25.21,78,100,12.48
199,Maningrida,AU,2022-05-02 09:02:46,-12.0667,134.2667,84.56,66,77,13.56
200,Rawson,AR,2022-05-02 09:01:37,-43.3002,-65.1023,50.86,66,91,3.47
201,Mangai,CD,2022-05-02 09:02:47,-4.05,19.5333,85.33,54,84,3.94
202,Epe,NG,2022-05-02 09:02:48,6.5841,3.9834,87.39,63,93,7.16
203,Thompson,CA,2022-05-02 09:02:49,55.7435,-97.8558,18.59,94,98,8.03
204,Mount Gambier,AU,2022-05-02 09:02:50,-37.8333,140.7667,58.64,74,82,6.29
205,Kaspiyskiy,RU,2022-05-02 09:02:50,45.3929,47.3707,62.92,49,87,18.32
206,Saint Anthony,US,2022-05-02 09:02:51,45.0205,-93.218,42.4,84,100,11.5
207,Kapaa,US,2022-05-02 09:02:52,22.0752,-159.319,72.12,84,35,1.01
208,Bilibino,RU,2022-05-02 09:02:53,68.0546,166.4372,16.88,85,17,3.8
209,Yumen,CN,2022-05-02 09:02:54,40.2833,97.2,74.05,4,2,12.86
210,Isangel,VU,2022-05-02 09:02:54,-19.55,169.2667,79.02,90,24,5.82
211,Saryg-Sep,RU,2022-05-02 09:02:55,51.5,95.6,76.57,12,64,9.71
212,Upernavik,GL,2022-05-02 09:02:56,72.7868,-56.1549,-1.48,83,6,4.07
213,Havelock,US,2022-05-02 09:00:13,34.8791,-76.9013,70.95,87,100,5.99
214,Ambilobe,MG,2022-05-02 09:02:57,-13.2,49.05,89.71,55,85,1.1
215,La Crosse,US,2022-05-02 09:01:09,43.8014,-91.2396,45.41,83,100,3.0
216,Hami,CN,2022-05-02 09:02:58,42.8,93.45,78.51,6,40,6.6
217,Gunjur,GM,2022-05-02 09:02:58,13.2019,-16.7339,71.67,78,100,13.42
218,Pangkalanbuun,ID,2022-05-02 09:02:59,-2.6833,111.6167,83.91,83,98,2.48
219,Padang,ID,2022-05-02 09:03:00,-0.9492,100.3543,84.25,77,91,2.51
220,Alofi,NU,2022-05-02 09:03:00,-19.0595,-169.9187,81.14,80,100,17.36
221,Dungarpur,IN,2022-05-02 09:03:01,23.8333,73.7167,105.57,12,27,17.2
222,Saint-Augustin,CA,2022-05-02 09:03:02,51.226,-58.6502,32.61,94,100,16.51
223,Sassandra,CI,2022-05-02 09:03:02,4.95,-6.0833,83.66,76,33,4.36
224,Sinnai,IT,2022-05-02 09:03:03,39.3042,9.2036,64.47,54,0,5.75
225,Muncar,ID,2022-05-02 09:03:04,-8.4333,114.3333,84.6,77,85,7.7
226,Vao,NC,2022-05-02 09:03:04,-22.6667,167.4833,75.54,87,39,14.16
227,Sahuaripa,MX,2022-05-02 09:01:43,29.05,-109.2333,64.49,36,0,6.08
228,Wukari,NG,2022-05-02 09:04:05,7.85,9.7833,87.87,58,100,9.98
229,Viedma,AR,2022-05-02 09:04:06,-40.8135,-62.9967,46.35,86,100,7.94
230,Svobodnyy,RU,2022-05-02 09:04:07,51.4,128.1333,45.91,78,100,12.86
231,Korla,CN,2022-05-02 09:04:08,41.7597,86.1469,78.84,12,0,21.07
232,Krasnoselkup,RU,2022-05-02 09:04:08,65.7,82.4667,32.13,100,59,3.96
233,Sosua,DO,2022-05-02 09:04:09,19.7667,-70.5167,69.22,82,100,3.24
234,Guerrero Negro,MX,2022-05-02 09:04:10,27.9769,-114.0611,57.42,89,7,10.27
235,Liverpool,GB,2022-05-02 09:00:04,53.4106,-2.9779,56.28,90,75,5.75
236,Chokwe,MZ,2022-05-02 09:04:11,-24.5333,32.9833,77.88,53,9,9.95
237,Luebo,CD,2022-05-02 09:04:12,-5.35,21.4167,82.71,59,89,4.32
238,Flinders,AU,2022-05-02 09:04:12,-34.5833,150.8552,66.38,80,30,7.09
239,Kahului,US,2022-05-02 09:04:13,20.8947,-156.47,74.84,87,80,11.01
240,Lahij,YE,2022-05-02 09:04:14,13.1667,44.5833,95.49,29,42,10.69
241,Yulara,AU,2022-05-02 09:04:14,-25.2406,130.9889,67.5,42,100,3.31
242,Kribi,CM,2022-05-02 08:59:43,2.95,9.9167,81.77,75,100,5.1
243,Katherine,AU,2022-05-02 09:04:15,-14.4667,132.2667,91.72,25,48,9.22
244,Kirpilskaya,RU,2022-05-02 09:04:16,45.377,39.6931,47.62,93,100,12.71
245,Boguchany,RU,2022-05-02 09:04:17,58.3814,97.4531,38.8,85,100,14.29
246,Kargasok,RU,2022-05-02 09:04:18,59.0556,80.8572,41.47,63,100,10.89
247,Bambous Virieux,MU,2022-05-02 09:04:18,-20.3428,57.7575,85.21,74,40,8.05
248,Basco,PH,2022-05-02 09:04:19,20.4487,121.9702,77.16,87,100,20.33
249,Cidreira,BR,2022-05-02 09:04:20,-30.1811,-50.2056,62.22,74,55,8.34
250,Narnaul,IN,2022-05-02 09:04:21,28.0444,76.1083,111.74,7,2,18.16
251,Agua Dulce,MX,2022-05-02 09:04:21,18.1333,-94.1333,77.63,90,82,4.65
252,Leopoldshohe,DE,2022-05-02 09:04:22,52.0125,8.6983,56.53,62,100,5.5
253,North Platte,US,2022-05-02 09:04:23,41.1239,-100.7654,45.12,92,100,18.99
254,Bethel,US,2022-05-02 09:04:23,41.3712,-73.414,52.66,86,100,3.15
255,Kushmurun,KZ,2022-05-02 09:04:24,52.4503,64.6311,52.95,31,44,14.23
256,Mumford,GH,2022-05-02 09:04:25,5.2618,-0.759,83.88,75,84,11.21
257,Nguru,NG,2022-05-02 09:04:26,12.8791,10.4526,98.67,15,14,15.75
258,Ust-Maya,RU,2022-05-02 09:04:26,60.4167,134.5333,44.53,70,78,9.24
259,Pangody,RU,2022-05-02 09:04:27,65.85,74.4859,28.63,77,100,4.88
260,Tuatapere,NZ,2022-05-02 09:04:28,-46.1333,167.6833,52.0,87,72,5.23
261,Laela,TZ,2022-05-02 09:04:29,-8.5667,32.05,66.92,75,88,5.48
262,Hit,IQ,2022-05-02 09:04:29,33.6416,42.8251,84.06,29,0,16.71
263,Yaan,NG,2022-05-02 09:04:30,7.3833,8.5667,83.73,65,78,10.36
264,Quelimane,MZ,2022-05-02 09:01:18,-17.8786,36.8883,74.84,86,57,7.83
265,Mattersburg,AT,2022-05-02 09:04:31,47.7333,16.4,64.38,68,100,6.44
266,Aasiaat,GL,2022-05-02 09:04:32,68.7098,-52.8699,8.82,97,100,3.53
267,Aviles,ES,2022-05-02 09:04:33,43.5547,-5.9248,59.38,87,75,3.44
268,Pangnirtung,CA,2022-05-02 09:04:33,66.1451,-65.7125,21.56,95,100,4.88
269,Mahebourg,MU,2022-05-02 09:04:34,-20.4081,57.7,85.24,74,40,8.05
270,Myitkyina,MM,2022-05-02 09:04:35,25.3833,97.4,94.42,32,93,4.38
271,Amnat Charoen,TH,2022-05-02 09:04:35,15.9167,104.75,67.06,77,100,21.0
272,Marsh Harbour,BS,2022-05-02 09:04:36,26.5412,-77.0636,75.18,68,55,14.54
273,Mahdalynivka,UA,2022-05-02 09:04:37,48.921,34.9156,58.86,47,63,3.22
274,Mayor Pablo Lagerenza,PY,2022-05-02 09:04:37,-19.9309,-60.7718,60.93,92,74,4.23
275,Zhigansk,RU,2022-05-02 09:05:38,66.7697,123.3711,25.25,76,100,17.81
276,Coahuayana,MX,2022-05-02 09:05:39,18.7333,-103.6833,67.86,62,74,4.12
277,Xuddur,SO,2022-05-02 09:05:40,4.1213,43.8894,87.48,48,65,17.96
278,Ibiapina,BR,2022-05-02 09:05:40,-3.9233,-40.8894,64.02,93,37,3.47
279,Aklavik,CA,2022-05-02 09:05:41,68.2191,-135.0107,30.87,95,100,7.87
280,Izhma,RU,2022-05-02 09:05:42,65.0083,53.9113,33.19,65,97,9.22
281,Clyde River,CA,2022-05-02 09:05:43,70.4692,-68.5914,8.83,85,100,10.36
282,Tilichiki,RU,2022-05-02 09:05:44,60.4667,166.1,19.67,93,33,2.68
283,Fairbanks,US,2022-05-02 09:05:45,64.8378,-147.7164,40.6,60,100,3.85
284,Petropavlovka,RU,2022-05-02 09:05:45,50.6114,105.3196,81.18,10,70,10.27
285,Huarmey,PE,2022-05-02 09:05:46,-10.0681,-78.1522,65.01,86,91,4.36
286,Mao,ES,2022-05-02 09:04:32,39.8885,4.2658,64.96,68,20,5.75
287,Mananjary,MG,2022-05-02 09:05:47,-21.2167,48.3333,79.99,65,21,8.34
288,Boulder,US,2022-05-02 09:05:48,40.0833,-105.3505,37.74,92,100,13.8
289,Cortez,US,2022-05-02 09:05:48,37.3489,-108.5859,43.03,70,0,4.61
290,Gornyy,RU,2022-05-02 09:05:49,55.1153,83.9059,58.55,50,72,19.69
291,Viseu,PT,2022-05-02 09:05:50,40.661,-7.9097,53.73,63,90,1.36
292,Kerman,IR,2022-05-02 09:05:51,30.2832,57.0788,76.86,16,0,6.91
293,Kaitangata,NZ,2022-05-02 09:05:51,-46.2817,169.8464,53.33,79,60,3.49
294,Norman Wells,CA,2022-05-02 09:01:19,65.282,-126.8329,38.28,87,24,12.53
295,Bunia,CD,2022-05-02 09:05:52,1.5667,30.25,70.81,77,99,5.84
296,Lebu,CL,2022-05-02 09:05:53,-37.6167,-73.65,49.96,93,11,13.27
297,Kichera,RU,2022-05-02 09:05:54,55.9375,110.0997,42.42,76,98,6.08
298,Asyut,EG,2022-05-02 09:05:54,27.181,31.1837,96.82,10,99,7.65
299,Provideniya,RU,2022-05-02 09:05:55,64.3833,-173.3,20.17,57,10,9.8
300,Bira,RU,2022-05-02 09:05:56,49.0,132.4667,46.83,73,100,5.66
301,Son La,VN,2022-05-02 09:05:56,21.3167,103.9,73.42,57,98,4.23
302,Whitehorse,CA,2022-05-02 09:05:57,60.7161,-135.0538,39.02,83,100,11.01
303,Vertientes,CU,2022-05-02 09:05:58,21.2594,-78.1464,72.21,92,1,6.11
304,Saint-Philippe,RE,2022-05-02 09:05:59,-21.3585,55.7679,83.79,76,5,7.52
305,Paamiut,GL,2022-05-02 09:05:59,61.994,-49.6678,30.6,86,100,8.37
306,Brindisi,IT,2022-05-02 09:02:22,40.5833,17.6667,64.78,73,41,11.72
307,Borovichi,RU,2022-05-02 09:06:00,58.3878,33.9155,48.87,54,100,10.16
308,Tazovskiy,RU,2022-05-02 09:06:01,67.4667,78.7,24.75,74,99,4.99
309,San Cristobal,VE,2022-05-02 09:06:02,7.7669,-72.225,65.32,97,63,3.67
310,Lorengau,PG,2022-05-02 09:06:02,-2.0226,147.2712,81.63,74,92,1.23
311,Parabel,RU,2022-05-02 09:06:03,58.6978,81.4825,38.1,83,100,11.45
312,Bar Harbor,US,2022-05-02 09:06:04,44.3876,-68.2039,42.85,88,0,0.0
313,Nouadhibou,MR,2022-05-02 09:06:04,20.931,-17.0347,67.15,72,7,13.06
314,Caravelas,BR,2022-05-02 09:06:05,-17.7125,-39.2481,70.54,93,73,3.44
315,Anavra,GR,2022-05-02 09:06:06,39.2,22.0833,59.45,81,100,3.18
316,Nantucket,US,2022-05-02 09:06:06,41.2835,-70.0995,49.01,85,0,11.5
317,Gamboma,CG,2022-05-02 09:06:07,-1.8764,15.8644,83.8,64,82,5.61
318,Baiyin,CN,2022-05-02 09:06:08,36.5583,104.2081,64.18,15,0,9.31
319,Ilulissat,GL,2022-05-02 09:06:09,69.2167,-51.1,17.62,67,75,2.3
320,Buraydah,SA,2022-05-02 09:06:09,26.326,43.975,87.53,14,0,8.39
321,Pokhara,NP,2022-05-02 09:06:10,28.2333,83.9833,80.02,46,77,7.34
322,Sri Aman,MY,2022-05-02 09:06:11,1.2376,111.4621,81.21,95,99,2.66
323,Beldanga,IN,2022-05-02 09:07:12,23.9333,88.25,102.96,29,4,6.22
324,Ayorou,NE,2022-05-02 09:07:12,14.7308,0.9174,96.57,8,2,13.69
325,Santa Fe,AR,2022-05-02 09:07:13,-31.6333,-60.7,53.02,77,99,5.99
326,Tocopilla,CL,2022-05-02 09:07:14,-22.092,-70.1979,61.61,69,23,1.79
327,Riyadh,SA,2022-05-02 09:04:58,24.6877,46.7219,92.35,8,0,9.46
328,Bela Vista,BR,2022-05-02 09:07:15,-22.1089,-56.5211,74.48,54,99,4.38
329,Dudinka,RU,2022-05-02 09:07:16,69.4058,86.1778,27.63,90,91,10.04
330,Asau,RO,2022-05-02 09:07:16,46.4333,26.4,61.29,49,100,6.67
331,Baykit,RU,2022-05-02 09:07:17,61.67,96.37,35.11,73,100,14.27
332,Kirsanov,RU,2022-05-02 09:07:18,52.6549,42.7224,53.35,35,38,6.8
333,Esna,EG,2022-05-02 09:07:18,25.2934,32.554,97.72,9,22,7.45
334,Dire Dawa,ET,2022-05-02 09:07:19,9.5931,41.8661,87.75,30,24,11.14
335,Jalu,LY,2022-05-02 09:07:20,29.0331,21.5482,76.66,37,0,23.73
336,Okhotsk,RU,2022-05-02 09:07:20,59.3833,143.3,33.44,85,18,8.39
337,Grand Gaube,MU,2022-05-02 09:07:21,-20.0064,57.6608,85.37,63,2,8.01
338,Yar-Sale,RU,2022-05-02 09:07:22,66.8333,70.8333,26.69,76,9,6.93
339,Ghugus,IN,2022-05-02 09:07:22,19.9333,79.1333,108.36,12,93,10.63
340,Villa Del Rosario,CO,2022-05-02 09:07:23,7.8339,-72.4742,71.38,82,63,5.12
341,Iwanai,JP,2022-05-02 09:07:24,42.9744,140.5089,42.35,91,100,14.07
342,Bulgan,MN,2022-05-02 09:07:24,48.8125,103.5347,74.73,10,3,11.3
343,La Reforma,MX,2022-05-02 09:07:25,25.0833,-108.05,65.46,84,17,7.2
344,Laizhou,CN,2022-05-02 09:07:26,37.1717,119.9214,68.41,27,10,6.71
345,Great Falls,US,2022-05-02 09:07:27,47.5002,-111.3008,44.6,75,0,12.66
346,Uhlove,UA,2022-05-02 09:07:27,44.8215,33.6045,61.02,50,2,11.43
347,Concarneau,FR,2022-05-02 09:07:28,47.875,-3.9225,56.82,92,100,8.46
348,Inuvik,CA,2022-05-02 09:07:29,68.3499,-133.7218,31.21,95,100,4.41
349,Zhangjiakou,CN,2022-05-02 09:07:29,40.81,114.8794,75.02,15,92,3.85
350,Meulaboh,ID,2022-05-02 09:07:30,4.1363,96.1285,84.15,73,97,5.01
351,Dingle,PH,2022-05-02 09:07:31,10.9995,122.6711,85.91,61,99,8.55
352,Jiayuguan,CN,2022-05-02 09:07:31,39.8167,98.3,70.54,5,0,7.9
353,Eberswalde,DE,2022-05-02 09:07:32,52.8349,13.8195,64.29,49,96,1.81
354,Vestmanna,FO,2022-05-02 09:07:33,62.1564,-7.1664,38.32,65,75,13.8
355,Eureka,US,2022-05-02 09:07:34,40.8021,-124.1637,49.39,89,46,7.78
356,Salalah,OM,2022-05-02 09:07:34,17.0151,54.0924,91.49,70,20,14.97
357,Nanning,CN,2022-05-02 09:07:35,22.8167,108.3167,77.45,43,95,10.04
358,Potosi,BO,2022-05-02 09:07:35,-19.5836,-65.7531,41.25,25,0,5.19
359,Iquitos,PE,2022-05-02 09:07:36,-3.7481,-73.2472,77.04,94,75,2.3
360,Nome,US,2022-05-02 09:07:37,64.5011,-165.4064,35.67,56,100,19.57
361,Quechultenango,MX,2022-05-02 09:07:37,17.4167,-99.2167,69.03,54,99,1.05
362,Terme,TR,2022-05-02 09:07:38,41.2092,36.9739,57.13,72,58,10.56
363,Maniitsoq,GL,2022-05-02 09:07:39,65.4167,-52.9,23.22,80,100,3.62
364,Niort,FR,2022-05-02 09:07:40,46.3333,-0.3333,60.71,59,99,3.0
365,Ust-Omchug,RU,2022-05-02 09:07:41,61.15,149.6333,32.02,77,100,7.52
366,Vesoul,FR,2022-05-02 09:07:42,47.5833,5.8333,59.81,69,70,6.91
367,Port Keats,AU,2022-05-02 09:07:42,-14.25,129.55,83.86,58,63,6.8
368,Juarez,MX,2022-05-02 09:03:27,31.7333,-106.4833,74.21,17,0,25.32
369,Vannes,FR,2022-05-02 09:07:44,47.8333,-2.5,50.61,93,100,7.54
370,Panama City,PA,2022-05-02 09:08:42,8.9936,-79.5197,79.29,84,100,4.45
371,Kailua,US,2022-05-02 09:08:45,21.4022,-157.7394,76.98,90,100,12.66
372,Palmas Bellas,PA,2022-05-02 09:08:46,9.2319,-80.0867,79.25,89,100,6.53
373,Leshukonskoye,RU,2022-05-02 09:08:46,64.8989,45.7622,35.85,73,93,7.78
374,Wewak,PG,2022-05-02 09:08:47,-3.5534,143.6268,80.92,80,44,4.45
375,Reconquista,AR,2022-05-02 09:08:48,-29.15,-59.65,56.61,96,100,12.1
376,Kyaikkami,MM,2022-05-02 09:08:49,16.08,97.5675,86.9,66,100,10.09
377,Pudozh,RU,2022-05-02 09:08:50,61.8099,36.5345,44.82,73,99,10.58
378,Olinda,BR,2022-05-02 09:08:50,-8.0089,-34.8553,74.93,100,40,3.44
379,Westport,US,2022-05-02 09:08:51,41.1415,-73.3579,53.89,89,100,6.91
380,Aswan,EG,2022-05-02 09:07:31,24.0934,32.907,99.0,8,11,8.05
381,Tyrma,RU,2022-05-02 09:08:52,50.0833,132.1667,48.04,54,99,5.28
382,Nicolas Bravo,MX,2022-05-02 09:08:53,18.45,-88.9167,71.71,99,39,2.44
383,Dahanu,IN,2022-05-02 09:06:36,19.9667,72.7333,88.65,65,0,13.47
384,Barao De Melgaco,BR,2022-05-02 09:08:54,-16.1944,-55.9675,70.27,56,7,4.14
385,Georgetown,MY,2022-05-02 09:08:54,5.4112,100.3354,87.73,74,20,2.3
386,Marrakesh,MA,2022-05-02 09:07:31,31.6315,-8.0083,66.27,48,0,3.44
387,Kudahuvadhoo,MV,2022-05-02 09:08:55,2.6708,72.8944,85.35,75,100,21.34
388,Joshimath,IN,2022-05-02 09:08:56,30.5667,79.5667,79.65,35,40,8.86
389,Hisor,TJ,2022-05-02 09:08:57,38.525,68.5512,83.95,33,100,5.64
390,Bend,US,2022-05-02 09:08:58,44.0582,-121.3153,50.49,66,40,7.0
391,Qufu,CN,2022-05-02 09:08:58,35.5967,116.9911,82.35,16,53,4.9
392,Beya,RU,2022-05-02 09:08:59,53.0533,90.9139,75.6,24,100,18.59
393,Ovre Ardal,NO,2022-05-02 09:09:00,61.3167,7.8,40.08,99,100,7.2
394,Khandyga,RU,2022-05-02 09:09:01,62.6667,135.6,39.78,86,78,7.92
395,Alice Springs,AU,2022-05-02 09:09:01,-23.7,133.8833,72.95,38,100,8.05
396,Xining,CN,2022-05-02 09:09:02,36.6167,101.7667,55.38,21,27,1.43
397,Lyuban,BY,2022-05-02 09:09:03,52.7985,28.0048,58.93,61,81,6.91
398,Motema,SL,2022-05-02 09:09:04,8.6,-11.0333,74.73,93,100,0.36
399,Stornoway,GB,2022-05-02 09:09:04,58.2093,-6.3865,49.96,74,75,4.61
400,Myskhako,RU,2022-05-02 09:09:05,44.6714,37.7433,55.18,88,100,17.94
401,Pahrump,US,2022-05-02 09:09:06,36.2083,-115.9839,61.5,24,0,7.0
402,Kruisfontein,ZA,2022-05-02 09:09:07,-34.0033,24.7314,71.89,44,1,7.72
403,Oruro,BO,2022-05-02 09:09:07,-17.9833,-67.15,43.38,65,8,1.19
404,Kampot,KH,2022-05-02 09:09:08,10.6167,104.1833,87.85,64,100,7.54
405,Egvekinot,RU,2022-05-02 09:09:09,66.3167,-179.1667,5.5,66,15,7.74
406,Tabou,CI,2022-05-02 09:09:09,4.423,-7.3528,84.63,71,80,4.5
407,Puerto Penasco,MX,2022-05-02 09:09:10,31.3167,-113.5333,70.92,79,0,13.0
408,Najran,SA,2022-05-02 09:09:11,17.4924,44.1277,90.19,13,43,8.14
409,Dwarka,IN,2022-05-02 09:09:12,22.2394,68.9678,89.42,55,0,12.86
410,Sinnamary,GF,2022-05-02 09:09:12,5.3833,-52.95,77.05,84,85,9.37
411,Bubaque,GW,2022-05-02 09:09:13,11.2833,-15.8333,77.61,68,43,9.82
412,Banepa,NP,2022-05-02 09:09:14,27.6298,85.5214,70.12,64,75,13.8
413,Tukrah,LY,2022-05-02 09:09:14,32.5341,20.5791,71.35,63,65,22.79
414,Harnai,PK,2022-05-02 09:09:15,30.1005,67.9374,98.22,11,94,12.97
415,Sao Borja,BR,2022-05-02 09:10:19,-28.6606,-56.0044,61.95,92,96,11.03
416,Mabaruma,GY,2022-05-02 09:10:20,8.2,-59.7833,70.93,97,36,1.52
417,Kayerkan,RU,2022-05-02 09:10:21,69.3497,87.7602,24.53,92,97,11.63
418,Zyryanskoye,RU,2022-05-02 09:10:22,56.8306,86.6258,49.59,76,100,13.51
419,Umm Lajj,SA,2022-05-02 09:10:22,25.0213,37.2685,83.23,55,0,11.48
420,Genoa,IT,2022-05-02 09:10:23,44.4129,8.9573,71.26,54,20,8.05
421,Puerto Ayacucho,VE,2022-05-02 09:10:23,5.6639,-67.6236,72.48,93,91,2.86
422,Luena,AO,2022-05-02 09:10:24,-11.7833,19.9167,71.83,44,1,9.73
423,Hellvik,NO,2022-05-02 09:10:25,59.9156,5.781,46.78,77,100,5.99
424,Qaqortoq,GL,2022-05-02 09:10:26,60.7167,-46.0333,35.46,90,100,4.81
425,Freeport,US,2022-05-02 09:10:26,40.6576,-73.5832,54.99,72,100,8.05
426,Ostrovnoy,RU,2022-05-02 09:10:27,68.0531,39.5131,31.96,84,43,12.21
427,Hualmay,PE,2022-05-02 09:10:28,-11.0964,-77.6139,63.81,88,75,6.71
428,Tuktoyaktuk,CA,2022-05-02 09:10:28,69.4541,-133.0374,31.93,96,100,6.11
429,Broome,US,2022-05-02 09:10:29,42.2506,-75.833,54.46,86,100,9.22
430,Maraa,BR,2022-05-02 09:10:30,-1.8333,-65.3667,71.98,99,96,1.54
431,Weihai,CN,2022-05-02 09:10:31,37.5017,122.1136,57.11,38,4,1.19
432,Batagay,RU,2022-05-02 09:10:32,67.6333,134.6333,34.34,94,96,4.99
433,Kibala,TD,2022-05-02 09:10:32,9.1104,18.3463,95.9,33,47,6.96
434,Harwich,GB,2022-05-02 09:10:33,51.9419,1.2844,56.5,72,100,4.43
435,Daugavpils,LV,2022-05-02 09:10:34,55.8833,26.5333,49.19,68,92,3.13
436,Arlit,NE,2022-05-02 09:10:34,18.7369,7.3853,95.5,6,8,11.3
437,Oparino,RU,2022-05-02 09:10:35,59.8518,48.2783,41.68,49,98,7.0
438,Champerico,GT,2022-05-02 09:10:36,14.3,-91.9167,81.95,77,99,3.27
439,Atar,MR,2022-05-02 09:10:36,20.5169,-13.0499,89.58,11,2,12.21
440,Darhan,MN,2022-05-02 09:10:37,49.4867,105.9228,80.82,10,30,14.0
441,Eyl,SO,2022-05-02 09:10:38,7.9803,49.8164,94.55,46,71,8.93
442,Tucumcari,US,2022-05-02 09:10:39,35.1717,-103.725,64.24,72,0,20.71
443,Myrtle Beach,US,2022-05-02 09:10:39,33.6891,-78.8867,69.85,86,75,5.75
444,Hasaki,JP,2022-05-02 09:10:40,35.7333,140.8333,57.6,57,86,11.34
445,Hervey Bay,AU,2022-05-02 09:10:41,-25.2986,152.8535,68.02,95,100,5.01
446,Tiksi,RU,2022-05-02 09:10:41,71.6872,128.8694,15.67,87,28,4.38
447,Turukhansk,RU,2022-05-02 09:10:42,65.8167,87.9833,34.29,97,98,3.94
448,College,US,2022-05-02 09:10:43,64.8569,-147.8028,40.95,60,75,6.91
449,Te Karaka,NZ,2022-05-02 09:10:44,-38.4654,177.8679,52.12,95,89,2.98
450,Namatanai,PG,2022-05-02 09:10:44,-3.6667,152.4333,81.27,80,25,5.3
451,Syasstroy,RU,2022-05-02 09:10:45,60.1367,32.5691,46.33,58,56,9.44
452,Koslan,RU,2022-05-02 09:10:46,63.4564,48.8989,37.33,57,100,9.57
453,Nueve De Julio,AR,2022-05-02 09:08:46,-35.4444,-60.8831,40.69,89,31,7.11
454,Brumunddal,NO,2022-05-02 09:10:47,60.881,10.9395,49.26,61,100,7.72
455,Aksu,CN,2022-05-02 09:10:48,41.1231,80.2644,79.52,11,3,5.97
456,Banda Aceh,ID,2022-05-02 09:10:48,5.5577,95.3222,85.64,68,90,12.06
457,Ballina,AU,2022-05-02 09:10:49,-28.8667,153.5667,65.01,84,0,9.57
458,Havoysund,NO,2022-05-02 09:10:50,70.9963,24.6622,32.23,91,100,32.64
459,Castelo Do Piaui,BR,2022-05-02 09:10:50,-5.3222,-41.5525,71.26,75,90,3.56
460,Wajima,JP,2022-05-02 09:10:51,37.4,136.9,54.28,82,40,5.75
461,Douentza,ML,2022-05-02 09:11:52,14.9951,-2.9517,92.39,10,5,10.16
462,Manaure,CO,2022-05-02 09:11:53,11.7751,-72.4445,80.44,80,99,13.0
463,Anzio,IT,2022-05-02 09:11:54,41.4853,12.6179,69.31,62,0,5.5
464,Fort Nelson,CA,2022-05-02 09:11:55,58.8053,-122.7002,33.98,94,100,6.06
465,Mae Hong Son,TH,2022-05-02 09:11:55,19.3003,97.9685,95.14,43,20,4.61
466,Petrozavodsk,RU,2022-05-02 09:11:56,61.7849,34.3469,49.46,50,75,17.9
467,Alfenas,BR,2022-05-02 09:11:57,-21.4292,-45.9472,60.94,92,76,2.28
468,Villa Sandino,NI,2022-05-02 09:11:58,12.0483,-84.9936,72.54,95,91,4.74
469,Muyezerskiy,RU,2022-05-02 09:11:58,63.9333,31.65,34.99,97,100,12.37
470,Kamenka,RU,2022-05-02 09:11:59,51.3223,42.7678,53.96,34,20,2.75
471,Berlevag,NO,2022-05-02 09:12:00,70.8578,29.0864,30.2,74,75,19.57
472,Colborne,CA,2022-05-02 09:12:00,44.0001,-77.8828,51.75,100,100,2.91
473,Marsa Matruh,EG,2022-05-02 09:12:01,31.3525,27.2453,73.92,44,100,17.76
474,Borova,UA,2022-05-02 09:12:02,50.1763,30.1043,63.25,43,13,7.72
475,Barcelos,PT,2022-05-02 09:12:03,41.5388,-8.6151,60.85,66,55,3.24
476,Karatuzskoye,RU,2022-05-02 09:12:03,53.6072,92.8667,73.98,25,100,16.2
477,Karratha,AU,2022-05-02 09:12:04,-20.7377,116.8463,90.1,38,1,12.66
478,Zarate,AR,2022-05-02 09:12:05,-34.0981,-59.0286,45.84,88,100,5.1
479,Olafsvik,IS,2022-05-02 09:12:06,64.8945,-23.7142,34.48,63,24,16.31
480,Lucapa,AO,2022-05-02 09:12:06,-8.4192,20.7447,75.87,63,84,4.99
481,Houston,US,2022-05-02 09:09:26,29.7633,-95.3633,76.3,83,100,12.66
482,Soyo,AO,2022-05-02 09:12:07,-6.1349,12.3689,82.54,75,67,4.5
483,Ketchikan,US,2022-05-02 09:12:08,55.3422,-131.6461,45.07,93,100,6.91
484,Kolaras,IN,2022-05-02 09:12:09,25.2333,77.6,107.08,13,1,13.51
485,Bainbridge,US,2022-05-02 09:12:10,47.6262,-122.5212,54.28,86,100,1.01
486,Laramie,US,2022-05-02 09:10:02,41.3114,-105.5911,36.09,79,100,4.61
487,Batticaloa,LK,2022-05-02 09:12:11,7.7102,81.6924,88.93,63,44,11.65
488,Roald,NO,2022-05-02 09:12:12,62.5833,6.1333,43.9,70,75,13.8
489,Rawlins,US,2022-05-02 09:12:12,41.7911,-107.2387,38.35,81,0,14.97
490,Montagnana,IT,2022-05-02 09:12:13,45.2287,11.4635,63.95,70,100,6.76
491,Husavik,IS,2022-05-02 09:12:14,66.0449,-17.3389,28.89,61,98,4.65
492,Machinga,MW,2022-05-02 09:12:15,-15.1685,35.3,69.12,63,85,3.49
493,Ghanzi,BW,2022-05-02 09:12:15,-21.5667,21.7833,73.62,37,0,13.94
494,Seoul,KR,2022-05-02 09:08:12,37.5683,126.9778,65.59,33,0,12.66
495,Naryan-Mar,RU,2022-05-02 09:12:16,67.6713,53.087,26.04,74,85,10.6
496,Tombouctou,ML,2022-05-02 09:12:17,20.0,-3.0,82.56,18,0,15.12
497,Hofn,IS,2022-05-02 09:12:18,64.2539,-15.2082,32.92,83,100,7.7
498,Ipubi,BR,2022-05-02 09:12:19,-7.6519,-40.1489,63.99,94,68,3.85
499,Karabash,RU,2022-05-02 09:12:20,55.4808,60.2157,47.26,33,36,13.0
500,Ambunti,PG,2022-05-02 09:12:20,-4.2365,142.8448,77.97,92,71,1.36
501,Zenzeli,RU,2022-05-02 09:12:21,45.9241,47.0474,63.66,34,99,15.43
502,Port Hardy,CA,2022-05-02 09:09:30,50.6996,-127.4199,46.0,90,100,4.85
503,Yazman,PK,2022-05-02 09:12:22,29.1212,71.7446,112.33,7,6,17.85
504,Vila Franca Do Campo,PT,2022-05-02 09:12:23,37.7167,-25.4333,66.2,76,95,4.7
505,Newport,GB,2022-05-02 09:12:24,51.5877,-2.9984,55.45,88,100,4.45
506,Petukhovo,RU,2022-05-02 09:12:25,55.0692,67.9019,48.38,34,94,18.52
507,Aguimes,ES,2022-05-02 09:13:25,27.9054,-15.4461,70.66,60,20,21.85
508,Kotma,IN,2022-05-02 09:13:26,23.2,81.9667,105.4,9,78,7.4
509,Palasa,IN,2022-05-02 09:13:27,18.7667,84.4167,92.03,55,2,13.09
510,Barinitas,VE,2022-05-02 09:13:28,8.7622,-70.4111,69.66,91,70,3.94
511,Conde,BR,2022-05-02 09:13:29,-7.2597,-34.9075,74.66,100,40,5.75
512,Kysyl-Syr,RU,2022-05-02 09:13:29,63.8986,122.7617,28.27,70,100,15.97
513,Syracuse,IT,2022-05-02 09:13:30,37.0881,15.2792,67.37,68,0,7.36
514,Port Augusta,AU,2022-05-02 09:13:31,-32.5,137.7667,66.15,37,0,5.28
515,Mocuba,MZ,2022-05-02 09:13:32,-16.8392,36.9856,76.39,66,54,7.27
516,Chhatak,BD,2022-05-02 09:13:32,25.0333,91.6667,88.11,60,67,5.3
517,Puerto Gaitan,CO,2022-05-02 09:11:13,4.3133,-72.0816,73.24,92,89,1.72
518,Mogadishu,SO,2022-05-02 09:10:25,2.0371,45.3438,85.06,71,100,15.39
519,Novikovo,RU,2022-05-02 09:13:34,51.1537,37.8879,56.62,38,41,2.95
520,Haukipudas,FI,2022-05-02 09:13:35,65.1765,25.3523,46.45,84,100,19.57
521,Mantua,IT,2022-05-02 09:13:35,45.1667,10.7833,65.44,62,67,5.99
522,Diebougou,BF,2022-05-02 09:11:13,10.9667,-3.25,94.03,35,11,6.49
523,Segezha,RU,2022-05-02 09:13:36,63.7415,34.3222,35.8,97,100,13.02
524,Bhuban,IN,2022-05-02 09:13:37,20.8833,85.8333,106.38,23,13,11.16
525,Salta,AR,2022-05-02 09:13:38,-24.7859,-65.4117,54.19,85,75,2.3
526,Haines Junction,CA,2022-05-02 09:13:38,60.7522,-137.5108,34.47,95,100,4.54
527,Kununurra,AU,2022-05-02 09:13:39,-15.7667,128.7333,85.98,45,0,6.91
528,Verkhnevilyuysk,RU,2022-05-02 09:13:40,63.4453,120.3167,32.72,59,100,11.52
529,Vieste,IT,2022-05-02 09:13:41,41.8825,16.175,60.87,72,75,9.98
530,Chimbote,PE,2022-05-02 09:10:02,-9.0853,-78.5783,63.59,89,83,5.93
531,Faya,SA,2022-05-02 09:13:42,18.3851,42.4509,79.32,28,1,5.41
532,Kitimat,CA,2022-05-02 09:13:43,54.0524,-128.6534,44.98,27,100,0.78
533,Sonoita,MX,2022-05-02 09:13:44,31.85,-112.8333,65.95,37,0,7.43
534,Kincardine,GB,2022-05-02 09:13:44,56.0667,-3.7167,55.51,86,100,3.67
535,College Place,US,2022-05-02 09:13:45,46.0493,-118.3883,53.56,85,0,4.61
536,Pacific Grove,US,2022-05-02 09:13:46,36.6177,-121.9166,51.48,89,1,14.0
537,Dauphin,CA,2022-05-02 09:11:26,51.1494,-100.0502,32.14,100,100,4.61
538,Daru,PG,2022-05-02 09:13:47,-9.0763,143.2092,80.29,86,19,12.39
539,Kahramanmaras,TR,2022-05-02 09:13:47,38.0,37.0,57.06,45,23,6.38
540,Krasnokamensk,RU,2022-05-02 09:13:48,50.0979,118.0369,70.95,23,100,17.63
541,Nishihara,JP,2022-05-02 09:13:49,26.1842,127.7558,63.68,88,100,5.75
542,Celestun,MX,2022-05-02 09:13:49,20.8667,-90.4,75.85,85,7,12.86
543,Kisumu,KE,2022-05-02 09:13:50,-0.1022,34.7617,76.8,65,75,6.91
544,Matagami,CA,2022-05-02 09:13:51,49.7502,-77.6328,37.71,95,88,8.12
545,Ukiah,US,2022-05-02 09:10:05,39.1502,-123.2078,50.05,82,0,4.61
546,Perg,AT,2022-05-02 09:13:52,48.25,14.6333,67.3,64,89,6.17
547,Kardamaina,GR,2022-05-02 09:13:53,36.7814,27.1425,69.28,64,40,4.61
548,Batagay-Alyta,RU,2022-05-02 09:13:53,67.8006,130.4114,16.88,93,100,13.13
549,Pipri,IN,2022-05-02 09:13:54,19.8,75.5333,103.53,13,2,9.86
550,Rio Cuarto,AR,2022-05-02 09:13:55,-33.1307,-64.3499,44.67,66,31,6.85
551,Romanovo,RU,2022-05-02 09:13:55,52.6182,81.2271,65.16,37,24,18.84
552,Kostomuksha,RU,2022-05-02 09:13:56,64.571,30.5767,35.76,97,100,12.8
553,Sao Felix Do Xingu,BR,2022-05-02 09:13:57,-6.6447,-51.995,68.7,93,78,1.43
554,Kafr Sawm,JO,2022-05-02 09:14:57,32.6833,35.8,69.69,40,1,7.18
555,High Level,CA,2022-05-02 09:14:58,58.5169,-117.136,38.75,92,98,7.16
556,Huoqiu,CN,2022-05-02 09:14:59,32.3394,116.2694,79.86,32,0,7.65
557,Westerland,DE,2022-05-02 09:15:00,54.9079,8.3033,56.01,66,0,8.05
558,Petropavlovsk-Kamchatskiy,RU,2022-05-02 09:15:01,53.0452,158.6483,37.99,52,0,6.71
559,Linhares,BR,2022-05-02 09:15:02,-19.3911,-40.0722,67.28,97,2,3.91
560,Goderich,CA,2022-05-02 09:15:02,43.7501,-81.7165,45.91,97,100,7.29
561,Diamantino,BR,2022-05-02 09:15:03,-14.4086,-56.4461,69.37,65,20,6.35
562,Porto Velho,BR,2022-05-02 09:15:04,-8.7619,-63.9039,73.45,94,0,1.14
563,Shubarkuduk,KZ,2022-05-02 09:15:05,49.1447,56.4872,60.13,39,13,10.4
564,San Quintin,MX,2022-05-02 09:15:06,30.4833,-115.95,56.57,86,42,9.24
565,Peniche,PT,2022-05-02 09:15:07,39.3558,-9.3811,60.3,94,99,6.53
566,Zunyi,CN,2022-05-02 09:15:07,27.6867,106.9072,66.2,52,65,6.49
567,Dzhebariki-Khaya,RU,2022-05-02 09:15:08,62.2167,135.8,42.37,71,51,9.62
568,Novopokrovka,UA,2022-05-02 09:15:09,49.8425,36.5477,57.96,42,38,3.24
569,Atikokan,CA,2022-05-02 09:15:10,48.7555,-91.6216,34.83,99,100,8.57
570,Arman,RU,2022-05-02 09:15:11,59.7,150.1667,41.02,92,69,3.98
571,Mujiayingzi,CN,2022-05-02 09:15:11,42.1167,118.7833,69.24,20,28,5.01
572,Sungaipenuh,ID,2022-05-02 09:15:12,-2.0833,101.3833,74.93,75,100,3.29
573,Minna,NG,2022-05-02 09:15:13,9.6139,6.5569,88.29,51,99,7.16
574,Haimen,CN,2022-05-02 09:15:13,23.1935,116.6142,62.49,91,100,12.01
575,Praia Da Vitoria,PT,2022-05-02 09:15:14,38.7333,-27.0667,62.76,77,16,3.22
576,Nueva Loja,EC,2022-05-02 09:15:15,0.0847,-76.8828,66.81,92,98,1.92
577,Honningsvag,NO,2022-05-02 09:15:16,70.9821,25.9704,31.75,74,100,23.02
578,Metro,ID,2022-05-02 09:15:17,-5.1131,105.3067,84.34,75,100,8.9
579,Puerto Escondido,MX,2022-05-02 09:15:17,15.85,-97.0667,80.96,73,78,5.19
580,Magdalena,PH,2022-05-02 09:15:18,14.1999,121.429,89.35,60,89,8.21
581,Ashqelon,IL,2022-05-02 09:15:19,31.6693,34.5715,87.78,51,4,5.55
582,Boyolangu,ID,2022-05-02 09:15:20,-8.1181,111.8935,81.82,83,98,6.53
583,Yerbogachen,RU,2022-05-02 09:15:21,61.2767,108.0108,36.97,45,4,5.08
584,Heishan,CN,2022-05-02 09:15:21,41.6892,122.1128,67.48,14,15,4.56
585,Ugoofaaru,MV,2022-05-02 09:15:22,5.6667,73.0,86.18,73,100,17.29
586,Farim,GW,2022-05-02 09:15:23,12.4839,-15.2217,85.96,29,86,3.56
587,Northam,GB,2022-05-02 09:15:24,51.0333,-4.2167,53.65,95,100,5.59
588,Deputatskiy,RU,2022-05-02 09:15:25,69.3,139.9,25.0,97,78,4.47
589,Lavrentiya,RU,2022-05-02 09:15:25,65.5833,-171.0,5.59,92,13,9.89
590,Manado,ID,2022-05-02 09:15:26,1.487,124.8455,86.77,74,40,4.61
591,Uttarkashi,IN,2022-05-02 09:15:27,30.7333,78.45,93.7,18,22,5.17
592,Maldonado,UY,2022-05-02 09:15:28,-34.6667,-54.9167,54.79,63,100,7.07
593,Nahrin,AF,2022-05-02 09:15:29,36.0649,69.1334,76.62,38,100,8.88
594,Kasongo-Lunda,CD,2022-05-02 09:15:29,-6.4667,16.8167,80.1,67,81,2.89
595,Ponta Delgada,PT,2022-05-02 09:15:31,37.7333,-25.6667,66.51,77,75,4.61
596,Brunico,IT,2022-05-02 09:15:31,46.7958,11.9364,53.11,66,96,2.66
597,Nelson Bay,AU,2022-05-02 09:15:04,-32.7167,152.15,69.01,86,80,10.74
598,Boa Vista,BR,2022-05-02 09:15:32,2.8197,-60.6733,76.98,78,0,8.05
599,Sangar,RU,2022-05-02 09:15:33,63.9242,127.4739,33.04,99,100,7.23
600,Salem,IN,2022-05-02 09:11:48,11.65,78.1667,104.43,19,99,4.03
601,Cristalina,BR,2022-05-02 09:16:34,-16.7686,-47.6136,58.05,61,11,2.42
602,Mattru,SL,2022-05-02 09:16:36,7.6244,-11.8332,81.3,81,98,1.05
603,Palmerston North,NZ,2022-05-02 09:11:48,-40.35,175.6167,57.74,91,100,3.36
604,Ust-Nera,RU,2022-05-02 09:16:37,64.5667,143.2,33.17,90,79,2.75
605,Marystown,CA,2022-05-02 09:16:38,47.1666,-55.1483,39.85,100,100,5.84
606,Shakawe,BW,2022-05-02 09:16:39,-18.3667,21.85,77.07,39,41,9.01
607,Gamba,GA,2022-05-02 09:16:39,-2.65,10.0,82.44,76,99,3.38
608,Palivere,EE,2022-05-02 09:16:40,58.9664,23.8911,54.25,45,100,11.56
609,Mwense,ZM,2022-05-02 09:16:41,-10.3845,28.698,75.9,50,88,6.67
610,Baculin,PH,2022-05-02 09:16:41,7.4525,126.5842,81.01,85,92,5.66
611,Bloemhof,ZA,2022-05-02 09:16:42,-27.6469,25.607,67.57,24,0,3.4
612,Gizo,SB,2022-05-02 09:16:43,-8.103,156.8419,82.85,73,29,0.13
613,Wuwei,CN,2022-05-02 09:16:44,37.9281,102.6414,67.32,13,0,7.09
614,Mazamari,PE,2022-05-02 09:16:45,-11.3258,-74.5308,68.11,96,79,2.06
615,Nago,JP,2022-05-02 09:16:45,26.5881,127.9761,63.45,76,100,10.8
616,Benguela,AO,2022-05-02 09:16:46,-12.5763,13.4055,83.46,58,4,2.04
617,Lashio,MM,2022-05-02 09:16:47,22.9333,97.75,77.27,53,76,1.19
618,Gwadar,PK,2022-05-02 09:16:47,25.1216,62.3254,87.73,60,0,21.97
619,Kapoeta,SS,2022-05-02 09:16:48,4.7717,33.5903,82.0,57,95,6.8
620,Biak,ID,2022-05-02 09:16:49,-0.9131,122.8766,81.03,79,22,6.69
621,Bukama,CD,2022-05-02 09:16:50,-9.2,25.85,79.56,59,95,0.96
622,Altay,CN,2022-05-02 09:16:51,47.8667,88.1167,70.21,27,98,5.55
623,Half Moon Bay,US,2022-05-02 09:16:52,37.4636,-122.4286,52.88,84,100,26.46
624,Andenes,NO,2022-05-02 09:16:52,69.3143,16.1194,35.58,87,75,5.75
625,Handia,IN,2022-05-02 09:16:54,25.3833,82.1833,109.83,12,2,9.28
626,Bocana De Paiwas,NI,2022-05-02 09:16:54,12.7857,-85.1227,72.84,96,90,3.47
627,Jiexiu,CN,2022-05-02 09:16:55,37.0244,111.9125,71.87,22,92,1.48
628,Yayva,RU,2022-05-02 09:16:56,59.3303,57.2641,43.18,68,100,9.73
629,Santa Luzia,BR,2022-05-02 09:16:57,-19.7697,-43.8514,62.94,88,0,5.75
630,Sur,OM,2022-05-02 09:16:57,22.5667,59.5289,94.95,31,0,8.37
631,Antofagasta,CL,2022-05-02 09:13:17,-23.65,-70.4,60.08,86,60,0.85
632,Kaffrine,SN,2022-05-02 09:16:58,14.1059,-15.5508,83.37,23,92,6.85
633,Poso,ID,2022-05-02 09:16:59,-1.3959,120.7524,82.72,82,86,1.39
634,Grand-Lahou,CI,2022-05-02 09:17:00,5.1367,-5.0242,83.39,75,89,6.11
635,Sao Jose Da Coroa Grande,BR,2022-05-02 09:17:01,-8.8978,-35.1478,76.93,85,98,3.49
636,Khash,IR,2022-05-02 09:17:01,28.2211,61.2158,86.9,12,0,11.01
637,Ayagoz,KZ,2022-05-02 09:17:02,47.9714,80.4392,67.5,49,100,11.45
638,Byron Bay,AU,2022-05-02 09:12:16,-28.65,153.6167,64.94,71,2,9.46
639,Auki,SB,2022-05-02 09:17:03,-8.7676,160.7034,78.96,85,86,4.0
640,Pak Phanang,TH,2022-05-02 09:17:04,8.3511,100.202,82.42,83,100,13.27
641,Inverell,AU,2022-05-02 09:17:05,-29.7833,151.1167,60.12,72,53,1.99
642,Imamoglu,TR,2022-05-02 09:17:06,37.2651,35.6572,78.51,43,3,3.42
643,Kawambwa,ZM,2022-05-02 09:17:07,-9.7915,29.0791,71.17,59,98,5.79
644,Labuhan,ID,2022-05-02 09:17:07,-6.8844,112.2051,85.95,74,98,10.04
645,Magaria,NE,2022-05-02 09:17:08,12.9983,8.9099,98.11,11,15,10.07
646,Francisco Beltrao,BR,2022-05-02 09:18:09,-26.0811,-53.055,63.23,97,74,2.33
647,Chiang Rai,TH,2022-05-02 09:18:10,19.9167,99.9167,85.3,68,20,10.36
648,Santiago,CL,2022-05-02 09:18:11,-33.4569,-70.6483,57.16,66,0,3.44
649,Antalaha,MG,2022-05-02 09:18:11,-14.9003,50.2788,83.7,61,31,11.14
650,North Bend,US,2022-05-02 09:15:04,43.4065,-124.2243,48.92,96,100,11.5
651,Khorixas,NA,2022-05-02 09:18:12,-20.3667,14.9667,83.7,26,0,20.78
652,Ahar,IR,2022-05-02 09:18:13,38.4774,47.0699,51.73,83,100,5.39
653,Mwinilunga,ZM,2022-05-02 09:18:14,-11.7358,24.4293,71.28,49,28,9.84
654,Mkushi,ZM,2022-05-02 09:18:15,-13.6202,29.3939,67.75,57,13,12.1
655,Saint-Pierre,RE,2022-05-02 09:18:16,-21.3393,55.4781,83.91,68,0,11.5
656,Watrous,CA,2022-05-02 09:18:16,51.6668,-105.4679,31.78,93,81,8.05
657,Sayyan,YE,2022-05-02 09:18:17,15.1718,44.3244,72.55,23,42,7.54
658,Garoua,CM,2022-05-02 09:15:37,9.3,13.4,96.15,37,90,6.44
659,Trelew,AR,2022-05-02 09:18:18,-43.249,-65.3051,49.68,67,89,3.4
660,Tigil,RU,2022-05-02 09:18:19,57.8,158.6667,30.33,96,95,3.09
661,Chabahar,IR,2022-05-02 09:18:19,25.2919,60.643,86.27,66,0,17.47
662,Talara,PE,2022-05-02 09:18:20,-4.5772,-81.2719,68.45,81,100,12.48
663,Gorom-Gorom,BF,2022-05-02 09:16:49,14.4439,-0.2361,95.22,8,4,13.82
664,Zima,RU,2022-05-02 09:18:21,53.9202,102.0442,75.31,24,93,5.99
665,Guadalajara,MX,2022-05-02 09:17:40,20.6667,-103.3333,58.77,41,0,0.0
666,Quang Ngai,VN,2022-05-02 09:18:22,15.1167,108.8,76.42,81,100,15.77
667,Nabire,ID,2022-05-02 09:18:23,-3.3667,135.4833,80.06,84,87,1.7
668,Russell,US,2022-05-02 09:15:25,32.3502,-85.1999,67.23,91,100,2.46
669,Tukums,LV,2022-05-02 09:18:24,56.9669,23.1553,49.35,45,55,5.84
670,Linaon,PH,2022-05-02 09:18:24,9.9499,122.4483,85.15,69,100,6.58
671,Praia,CV,2022-05-02 09:18:25,14.9215,-23.5087,73.94,68,20,21.85
672,Timiryazevskoye,RU,2022-05-02 09:18:26,56.49,84.8769,51.1,54,100,14.32
673,Qixia,CN,2022-05-02 09:18:27,37.2975,120.8256,66.92,21,2,4.14
674,Mount Darwin,ZW,2022-05-02 09:18:28,-16.7725,31.5838,73.53,47,5,8.01
675,Elizabethton,US,2022-05-02 09:16:48,36.3487,-82.2107,64.17,75,75,0.0
676,Iskateley,RU,2022-05-02 09:18:29,67.6803,53.1512,25.95,73,86,10.56
677,Kupino,RU,2022-05-02 09:18:30,54.3663,77.2981,57.63,34,6,14.58
678,Naze,JP,2022-05-02 09:15:59,28.3667,129.4833,65.32,53,100,12.84
679,Zyryanka,RU,2022-05-02 09:18:31,65.75,150.85,32.9,90,100,5.7
680,Bontang,ID,2022-05-02 09:18:32,0.1333,117.5,83.95,71,100,7.05
681,Lafia,NG,2022-05-02 09:18:33,8.4833,8.5167,87.84,54,91,7.25
682,Hobyo,SO,2022-05-02 09:18:34,5.3505,48.5268,91.17,52,100,13.62
683,Kaeo,NZ,2022-05-02 09:18:34,-35.1,173.7833,58.32,93,100,6.29
684,Gallup,US,2022-05-02 09:15:36,35.5281,-108.7426,48.04,24,0,8.05
685,Lebanon,US,2022-05-02 09:17:53,36.2081,-86.2911,57.45,89,27,1.83
686,Mende,FR,2022-05-02 09:18:36,44.6667,3.5,53.08,47,100,2.24
687,Kosino,RU,2022-05-02 09:18:37,58.4127,51.2782,44.94,54,98,11.52
688,Salym,RU,2022-05-02 09:18:38,60.0625,71.4789,44.73,63,100,8.68
689,Sioux Lookout,CA,2022-05-02 09:19:39,50.1001,-91.917,33.87,93,100,9.22
690,Klaksvik,FO,2022-05-02 09:19:39,62.2266,-6.589,40.12,70,87,15.95
691,Ornskoldsvik,SE,2022-05-02 09:19:40,63.2909,18.7153,49.15,53,0,28.77
692,Verkhnyaya Inta,RU,2022-05-02 09:19:41,65.9811,60.3094,30.0,62,99,14.41
693,Starkville,US,2022-05-02 09:19:41,33.4504,-88.8184,64.06,94,75,0.0
694,Port Moresby,PG,2022-05-02 09:19:42,-9.4431,147.1797,81.82,83,40,13.8
695,Kirakira,SB,2022-05-02 09:19:43,-10.4544,161.9205,80.15,83,100,3.53
696,Nyurba,RU,2022-05-02 09:19:44,63.2842,118.3319,34.11,58,100,10.2
697,Forbes,AU,2022-05-02 09:19:44,-33.3833,148.0167,62.92,62,0,4.9
698,Acapulco,MX,2022-05-02 09:15:11,16.8634,-99.8901,71.42,88,0,0.0
699,Sola,VU,2022-05-02 09:19:45,-13.8833,167.55,75.87,100,75,0.0
700,Sangmelima,CM,2022-05-02 09:19:46,2.9333,11.9833,80.42,66,92,2.98
701,Khrebtovaya,RU,2022-05-02 09:19:47,56.7032,104.2494,39.88,79,97,14.61
702,Sistranda,NO,2022-05-02 09:19:47,63.7256,8.834,42.76,81,87,36.64
703,Leh,IN,2022-05-02 09:19:48,34.1667,77.5833,57.2,22,0,3.38
704,Belogorsk,RU,2022-05-02 09:19:49,50.9158,128.4611,47.34,72,100,15.03
705,Sawang Daen Din,TH,2022-05-02 09:19:49,17.4753,103.4575,83.1,84,93,6.29
706,Show Low,US,2022-05-02 09:19:50,34.2542,-110.0298,50.07,28,0,8.05
